{
"type": "FeatureCollection",
"crs": { "type": "name", "properties": { "name": "urn:ogc:def:crs:OGC:1.3:CRS84" } },
                                                                                
"features": [
{ "type": "Feature", "properties": { "Name": "Autocentrum Rakoczy. Mechanika pojazdowa. Detaliczna sprzedaż części, autoszyby", "Snippet": "Lubańska 1B, 59-900 Zgorzelec" }, "geometry": { "type": "Point", "coordinates": [ 15.000987700652464, 51.160074300673948, 0.0 ] } },
{ "type": "Feature", "properties": { "Name": "Camping", "Snippet": "Lubańska 1a, 59-900 Zgorzelec" }, "geometry": { "type": "Point", "coordinates": [ 14.999374199383707, 51.159746700788212, 0.0 ] } },
{ "type": "Feature", "properties": { "Name": "Dom Turysty", "Snippet": "Partyzantów 2, 59-900 Zgorzelec" }, "geometry": { "type": "Point", "coordinates": [ 15.003802600342727, 51.148847300300702, 0.0 ] } },
{ "type": "Feature", "properties": { "Name": "Schronisko Młodzieżowe Pod Cisem", "Snippet": "Henryków Lubański 375A, 59-800" }, "geometry": { "type": "Point", "coordinates": [ 15.250853299950835, 51.164537200831532, 0.0 ] } },
{ "type": "Feature", "properties": { "Name": "Motel Łużycki", "Snippet": "Zgorzelecka 51, 59-800 Lubań" }, "geometry": { "type": "Point", "coordinates": [ 15.288278999688259, 51.125293000819902, 0.0 ] } },
{ "type": "Feature", "properties": { "Name": "Zgromadzenie zakonne Sióstr św. Marii Magdaleny od Pokuty", "Snippet": "Wrocławska 17, Lubań" }, "geometry": { "type": "Point", "coordinates": [ 15.292249999391554, 51.124062000865905, 0.0 ] } },
{ "type": "Feature", "properties": { "Name": "Parafia rzymskokatolicka Trójcy Świętej", "Snippet": "Szymanowskiego 1, 59-800 Lubań" }, "geometry": { "type": "Point", "coordinates": [ 15.291921099966768, 51.122230900736099, 0.0 ] } },
{ "type": "Feature", "properties": { "Name": "Kościół pw Narodzenia Najświętszej Maryi Panny", "Snippet": "Różana 21, 59-800 Lubań" }, "geometry": { "type": "Point", "coordinates": [ 15.30269789973787, 51.120906700649861, 0.0 ] } },
{ "type": "Feature", "properties": { "Name": "Agro-Spa Pod Laskiem", "Snippet": "Nawojów Łużycki 42, 59-800 Lubań" }, "geometry": { "type": "Point", "coordinates": [ 15.327426800728823, 51.17006060090052, 0.0 ] } },
{ "type": "Feature", "properties": { "Name": "Agroturystyka \"OssówkA\"", "Snippet": "Nawojów Śląski 6, 59-800 Lubań" }, "geometry": { "type": "Point", "coordinates": [ 15.321074500120989, 51.152875200481937, 0.0 ] } },
{ "type": "Feature", "properties": { "Name": "Agroturystyka Dom Pod Sową - noclegi Lubań", "Snippet": "Lubań" }, "geometry": { "type": "Point", "coordinates": [ 15.348131000323047, 51.174056000532531, 0.0 ] } },
{ "type": "Feature", "properties": { "Name": "Robotnicza 5", "Snippet": "Robotnicza 5, 59-730 Nowogrodziec" }, "geometry": { "type": "Point", "coordinates": [ 15.393210500711385, 51.193823100832859, 0.0 ] } },
{ "type": "Feature", "properties": { "Name": "Willa Ambasada-Dobre spanie w Nowogrodźcu", "Snippet": "Lipowa 5, 59-730 Nowogrodziec" }, "geometry": { "type": "Point", "coordinates": [ 15.399894199958849, 51.192050500358164, 0.0 ] } },
{ "type": "Feature", "properties": { "Name": "Rynek 22", "Snippet": "Rynek 22, 59-730 Nowogrodziec" }, "geometry": { "type": "Point", "coordinates": [ 15.397146499384064, 51.196907200637341, 0.0 ] } },
{ "type": "Feature", "properties": { "Name": "Maria. Wynajem pokoi. Mandżak M.", "Snippet": "Zabobrze 10, Bolesławiec" }, "geometry": { "type": "Point", "coordinates": [ 15.539441799987115, 51.263157200817297, 0.0 ] } },
{ "type": "Feature", "properties": { "Name": "Pensjonat \"U Janiny\"", "Snippet": "Kołłątaja 20A, 59-700 Bolesławiec" }, "geometry": { "type": "Point", "coordinates": [ 15.577484599726484, 51.251766500639434, 0.0 ] } },
{ "type": "Feature", "properties": { "Name": "Avalon Pensjonat", "Snippet": "Staszica 9B, 59-700 Bolesławiec" }, "geometry": { "type": "Point", "coordinates": [ 15.561936900352967, 51.267493300377218, 0.0 ] } },
{ "type": "Feature", "properties": { "Name": "Noclegi - Pensjonat \"Zielony Dom\"", "Snippet": "Dolne Młyny 34, 59-700 Bolesławiec" }, "geometry": { "type": "Point", "coordinates": [ 15.556066100182861, 51.268302501021182, 0.0 ] } },
{ "type": "Feature", "properties": { "Name": "Pensjonat JUSTYNA", "Snippet": "Widok 12, 59-700 Bolesławiec" }, "geometry": { "type": "Point", "coordinates": [ 15.543721699506124, 51.265921900511984, 0.0 ] } },
{ "type": "Feature", "properties": { "Name": "Mostowa 27", "Snippet": "Mostowa 27, Bolesławiec" }, "geometry": { "type": "Point", "coordinates": [ 15.549771999644737, 51.270987900422185, 0.0 ] } },
{ "type": "Feature", "properties": { "Name": "Kasztanowa 10", "Snippet": "Kasztanowa 10, 59-700 Bolesławiec" }, "geometry": { "type": "Point", "coordinates": [ 15.575892999539104, 51.252809901184918, 0.0 ] } },
{ "type": "Feature", "properties": { "Name": "Zgromadzenie Sióstr Adoratorek Krwi Chrystusa", "Snippet": "Zgorzelecka 27, Bolesławiec" }, "geometry": { "type": "Point", "coordinates": [ 15.552556599690559, 51.265280401055101, 0.0 ] } },
{ "type": "Feature", "properties": { "Name": "Pensjonat Columbus", "Snippet": "Orzechowa 13, 59-700 Kruszyn" }, "geometry": { "type": "Point", "coordinates": [ 15.617158300577666, 51.259575700943529, 0.0 ] } },
{ "type": "Feature", "properties": { "Name": "Osła 107", "Snippet": "Osła 107, 59-706 Osła" }, "geometry": { "type": "Point", "coordinates": [ 15.768880999652341, 51.320156900398473, 0.0 ] } },
{ "type": "Feature", "properties": { "Name": "Osła 82", "Snippet": "Osła 82, 59-706 Osła" }, "geometry": { "type": "Point", "coordinates": [ 15.75900299950081, 51.319511900588822, 0.0 ] } },
{ "type": "Feature", "properties": { "Name": "Kościół parafialny pw. Matki Bożej Częstochowskiej w Gromadce", "Snippet": "Kościół parafialny pw. Matki Bożej Częstochowskiej w Gromadce, Osiedlowa, 59-706 Gromadka" }, "geometry": { "type": "Point", "coordinates": [ 15.75857140028187, 51.357703500493351, 0.0 ] } },
{ "type": "Feature", "properties": { "Name": "Gospodarstwo agroturystyczne Józef Krzysiek", "Snippet": "59-706 Gromadka" }, "geometry": { "type": "Point", "coordinates": [ 15.764116200493783, 51.357977300539709, 0.0 ] } },
{ "type": "Feature", "properties": { "Name": "Stary Młyn. Gospodarstwo agroturystyczne", "Snippet": "Kościuszki 25, Chocianów" }, "geometry": { "type": "Point", "coordinates": [ 15.892515000510917, 51.415670901066306, 0.0 ] } },
{ "type": "Feature", "properties": { "Name": "Dworek w Chocianowie", "Snippet": "Spacerowa 11A, 59-140 Chocianów" }, "geometry": { "type": "Point", "coordinates": [ 15.922079000377023, 51.41491500098352, 0.0 ] } },
{ "type": "Feature", "properties": { "Name": "Pod Dębem. PPHU. Bereżański J.", "Snippet": "Ratuszowa 2, 59-140 Chocianów" }, "geometry": { "type": "Point", "coordinates": [ 15.901319300611918, 51.419336800844405, 0.0 ] } },
{ "type": "Feature", "properties": { "Name": "Nowa Wieś Lubińska 19A", "Snippet": "Nowa Wieś Lubińska 19A, 59-101 Nowa Wieś Lubińska" }, "geometry": { "type": "Point", "coordinates": [ 15.980036000127496, 51.465773901129594, 0.0 ] } },
{ "type": "Feature", "properties": { "Name": "U Zenka", "Snippet": "Tadeusza Babisza 2A, 59-100 Polkowice" }, "geometry": { "type": "Point", "coordinates": [ 16.061166900533006, 51.500477400507684, 0.0 ] } },
{ "type": "Feature", "properties": { "Name": "Dwór Ziemowit", "Snippet": "Nagietkowa 14A, 59-101 Polkowice" }, "geometry": { "type": "Point", "coordinates": [ 16.041664500226581, 51.503192300555163, 0.0 ] } },
{ "type": "Feature", "properties": { "Name": "Zajazd Adria", "Snippet": "Kopalniana 2, 59-100 Polkowice" }, "geometry": { "type": "Point", "coordinates": [ 16.066954599968525, 51.498666601217153, 0.0 ] } },
{ "type": "Feature", "properties": { "Name": "Kościół pw św Jana Chrzciciela", "Snippet": "Grodowiec 24, 67-220 Grębocice" }, "geometry": { "type": "Point", "coordinates": [ 16.163424000414075, 51.59826700111303, 0.0 ] } },
{ "type": "Feature", "properties": { "Name": "Sanktuarium św. Jakuba Apostoła w Jakubowie", "Snippet": "59-160 Jakubów" }, "geometry": { "type": "Point", "coordinates": [ 15.999154200229102, 51.608692800872845, 0.0 ] } },
{ "type": "Feature", "properties": { "Name": "Grodzka Hostel", "Snippet": "Grodzka 40, 67-200 Głogów" }, "geometry": { "type": "Point", "coordinates": [ 16.091681799788411, 51.663577800500285, 0.0 ] } },
{ "type": "Feature", "properties": { "Name": "Cisi Pracownicy Krzyża", "Snippet": "Księdza Prałata Luigi Novarese 2, Głogów" }, "geometry": { "type": "Point", "coordinates": [ 16.092805600010728, 51.669958901073755, 0.0 ] } },
{ "type": "Feature", "properties": { "Name": "Fin de Siecle", "Snippet": "Rynek 22, 67-407 Szlichtyngowa" }, "geometry": { "type": "Point", "coordinates": [ 16.244360199255564, 51.714518001262071, 0.0 ] } },
{ "type": "Feature", "properties": { "Name": "Hotel. Ośrodek sportu i rekreacji", "Snippet": "Sportowa 5, 67-400 Wschowa" }, "geometry": { "type": "Point", "coordinates": [ 16.318399500519394, 51.796428900714041, 0.0 ] } },
{ "type": "Feature", "properties": { "Name": "Klasztor o. Franciszkanów", "Snippet": "Klasztorna 2, 67-400 Wschowa" }, "geometry": { "type": "Point", "coordinates": [ 16.314466999651181, 51.806962000782114, 0.0 ] } },
{ "type": "Feature", "properties": { "Name": "Jesienna 21", "Snippet": "Jesienna 21, Leszno" }, "geometry": { "type": "Point", "coordinates": [ 16.570397600579309, 51.865246901230591, 0.0 ] } },
{ "type": "Feature", "properties": { "Name": "Tortuga. Motel", "Snippet": "Lipowa 22A, 64-100 Leszno" }, "geometry": { "type": "Point", "coordinates": [ 16.575401999897462, 51.837216700657578, 0.0 ] } },
{ "type": "Feature", "properties": { "Name": "Usługi hotelarskie Piotrowski Józef", "Snippet": "Bolesława Chrobrego 16\/4, 64-100 Leszno" }, "geometry": { "type": "Point", "coordinates": [ 16.576471500421476, 51.841934200951037, 0.0 ] } },
{ "type": "Feature", "properties": { "Name": "Pensjonat Stodoła", "Snippet": "Pilotów 15a, 64-100 Strzyżewice" }, "geometry": { "type": "Point", "coordinates": [ 16.53954299952818, 51.829244000972075, 0.0 ] } },
{ "type": "Feature", "properties": { "Name": "Bursa Międzyszkolna nr 1", "Snippet": "Józefa Poniatowskiego 11, Leszno" }, "geometry": { "type": "Point", "coordinates": [ 16.571646399533012, 51.847767300882829, 0.0 ] } },
{ "type": "Feature", "properties": { "Name": "Relax. Ośrodek wczasowo - kolonijny", "Snippet": "Gostyńska, 64-113 Osieczna" }, "geometry": { "type": "Point", "coordinates": [ 16.689338799687977, 51.903622301209168, 0.0 ] } },
{ "type": "Feature", "properties": { "Name": "Morena. Szkolne Schronisko Młodzieżowe", "Snippet": "Mikołaja Kopernika 4, 64-113 Osieczna" }, "geometry": { "type": "Point", "coordinates": [ 16.684225299662472, 51.904798900458779, 0.0 ] } },
{ "type": "Feature", "properties": { "Name": "U Janeczki. Agroturystyka", "Snippet": "Łącko, 64-113 Osieczna" }, "geometry": { "type": "Point", "coordinates": [ 16.676192399783201, 51.906306200687332, 0.0 ] } },
{ "type": "Feature", "properties": { "Name": "Szkolne Schronisko Młodzieżowe", "Snippet": "Powstańców 23, 64-010" }, "geometry": { "type": "Point", "coordinates": [ 16.898238999519311, 51.964367001222428, 0.0 ] } },
{ "type": "Feature", "properties": { "Name": "Stowarzyszenie Oliwskie Słoneczko", "Snippet": "Mickiewicza 3, 64-010 Lubiń" }, "geometry": { "type": "Point", "coordinates": [ 16.900067399539349, 51.965665700544406, 0.0 ] } },
{ "type": "Feature", "properties": { "Name": "Dom Gości-Klasztor Benedyktynów", "Snippet": "Mickiewicza 6, 64-010 Lubiń" }, "geometry": { "type": "Point", "coordinates": [ 16.90105599994347, 51.966406001273306, 0.0 ] } },
{ "type": "Feature", "properties": { "Name": "Parafia rzymskokatolicka św. Wojciecha", "Snippet": "Dalewo; 67, 63-100" }, "geometry": { "type": "Point", "coordinates": [ 16.91898820004894, 52.022954301338352, 0.0 ] } },
{ "type": "Feature", "properties": { "Name": "Parafia rzymskokatolicka św. Jakuba Apostoła", "Snippet": "63-112 Żabno; 84" }, "geometry": { "type": "Point", "coordinates": [ 16.891255299739267, 52.178285700510962, 0.0 ] } },
{ "type": "Feature", "properties": { "Name": "Hotel Hubertus", "Snippet": "Chopina 42, 62-050 Mosina" }, "geometry": { "type": "Point", "coordinates": [ 16.850246199565529, 52.268122601108388, 0.0 ] } },
{ "type": "Feature", "properties": { "Name": "Poco Loco Hostel", "Snippet": "Taczaka 23, 61-819 Poznań" }, "geometry": { "type": "Point", "coordinates": [ 16.923738500256654, 52.405375100788767, 0.0 ] } },
{ "type": "Feature", "properties": { "Name": "Szkolne Schronisko Młodzieżowe nr 1 w Poznaniu", "Snippet": "Głuszyna 127, Poznań" }, "geometry": { "type": "Point", "coordinates": [ 16.947082499729614, 52.322298501194183, 0.0 ] } },
{ "type": "Feature", "properties": { "Name": "Szkolne Schronisko Młodzieżowe \"Sarenka\" w Kobylnicy", "Snippet": "Poznańska 50, 62-006 Kobylnica" }, "geometry": { "type": "Point", "coordinates": [ 17.080243899801491, 52.447822700491386, 0.0 ] } },
{ "type": "Feature", "properties": { "Name": "Hotel Relax", "Snippet": "Poznańska 47, 62-095 Murowana Goślina" }, "geometry": { "type": "Point", "coordinates": [ 17.006863099532993, 52.568503300664673, 0.0 ] } },
{ "type": "Feature", "properties": { "Name": "Matoga Czesław. Gospodarstwo agroturystyczne", "Snippet": "Boduszewo 8, 62-095 Murowana Goślina" }, "geometry": { "type": "Point", "coordinates": [ 17.048850000345023, 52.57456000046826, 0.0 ] } },
{ "type": "Feature", "properties": { "Name": "Stajenka. Karczma. Dworczak A.", "Snippet": "Boduszewo 13, 62-095 Murowana Goslina" }, "geometry": { "type": "Point", "coordinates": [ 17.008657000289229, 52.573818000866716, 0.0 ] } },
{ "type": "Feature", "properties": { "Name": "Ranczo w Dolinie. Sudoł H.", "Snippet": "Dąbrówka Kościelna 20, 62-280 Kiszkowo" }, "geometry": { "type": "Point", "coordinates": [ 17.161628000557556, 52.575078700948879, 0.0 ] } },
{ "type": "Feature", "properties": { "Name": "POD LIPAMI. Gosp. Agroturystyczne CAMPING", "Snippet": "Waliszewo 11, 62-270 Waliszewo" }, "geometry": { "type": "Point", "coordinates": [ 17.388414000074746, 52.5552450012637, 0.0 ] } },
{ "type": "Feature", "properties": { "Name": "Jastrzębski Szymon. Gospodarstwo agroturystyczne", "Snippet": "Waliszewo 19, 62-270 Kłecko" }, "geometry": { "type": "Point", "coordinates": [ 17.38858700039226, 52.560736001138196, 0.0 ] } },
{ "type": "Feature", "properties": { "Name": "Mat'Mar Gospodarstwo Agroturystyczne", "Snippet": "Waliszewo 12, 62-270 Kłecko" }, "geometry": { "type": "Point", "coordinates": [ 17.388705999387348, 52.553982000563948, 0.0 ] } },
{ "type": "Feature", "properties": { "Name": "Patria. Fundacja", "Snippet": "62-280 Skrzetuszewo; 54" }, "geometry": { "type": "Point", "coordinates": [ 17.357255800661925, 52.551234600561479, 0.0 ] } },
{ "type": "Feature", "properties": { "Name": "Szkolne Schronisko Młodzieżowe", "Snippet": "Pocztowa 11, Gniezno" }, "geometry": { "type": "Point", "coordinates": [ 17.608467599982998, 52.532376200651875, 0.0 ] } },
{ "type": "Feature", "properties": { "Name": "Zgromadzenie zakonne Sióstr Misjonarek Apostolstwa Katolickiego (Pallotynki)", "Snippet": "Hoża 31, Gniezno" }, "geometry": { "type": "Point", "coordinates": [ 17.598178700514627, 52.508551300486118, 0.0 ] } },
{ "type": "Feature", "properties": { "Name": "STAJNIA KALINA GOSPODARSTWO AGROTURYSTYCZNE", "Snippet": "Kalina 4, Gniezno" }, "geometry": { "type": "Point", "coordinates": [ 17.740688000717327, 52.539300000473098, 0.0 ] } },
{ "type": "Feature", "properties": { "Name": "Hotel i Restauracja HEAVEN Chabsko \/ Mogilno", "Snippet": "Chabsko 32, 88-342 Chabsko" }, "geometry": { "type": "Point", "coordinates": [ 17.9386989995436, 52.635459001164456, 0.0 ] } },
{ "type": "Feature", "properties": { "Name": "Dom-Stara Chata. Gospodarstwo agroturystyczne", "Snippet": "Popielewo 9, 62-235 Popielewo" }, "geometry": { "type": "Point", "coordinates": [ 17.855400000464243, 52.554600001320914, 0.0 ] } },
{ "type": "Feature", "properties": { "Name": "Kłossowscy Michał i Genowefa. Pokoje gościnne", "Snippet": "Bystrzyca 6, 62-240 Trzemeszno" }, "geometry": { "type": "Point", "coordinates": [ 17.84234269947487, 52.567974301228688, 0.0 ] } },
{ "type": "Feature", "properties": { "Name": "Czeremcha", "Snippet": "św. Jana 20, 62-240 Trzemeszno" }, "geometry": { "type": "Point", "coordinates": [ 17.819167799531467, 52.55950090113663, 0.0 ] } },
{ "type": "Feature", "properties": { "Name": "Adalbert W. Europejskie Centrum Spotkań", "Snippet": "Benedykta XVI, 88-300 Mogilno" }, "geometry": { "type": "Point", "coordinates": [ 17.954705700279344, 52.649065701278623, 0.0 ] } }
]
}
